time(millisecond);datetime(utc);latitude;longitude;height_above_takeoff(meters);height_above_ground_at_drone_location(meters);ground_elevation_at_drone_location(meters);altitude_above_seaLevel(meters);height_sonar(meters);speed(km/h);distance(meters);satellites;gpslevel;voltage(v);max_altitude(meters);max_ascent(meters);max_speed(km/h);max_distance(meters); xSpeed(km/h); ySpeed(km/h); zSpeed(km/h); compass_heading(degrees); pitch(degrees); roll(degrees);isPhoto;isVideo;rc_elevator;rc_aileron;rc_throttle;rc_rudder;gimbal_heading(degrees);gimbal_pitch(degrees);battery_percent;voltageCell1;voltageCell2;voltageCell3;voltageCell4;voltageCell5;voltageCell6;current(A);battery_temperature(c);altitude(meters);ascent(meters);flycStateRaw;flycState;message
0;25.08.2021 07:02;53,20753423;22,77306973;0;0;109,960495;109,960495;0,1;0;0;13;5;0;109,960495;0;0;0;0;0;0;92,90;8,6;-1,8;0;0;1024;1024;1024;1024;93,1;0;97;3,989;3,992;3,94;0;0;0;0;;109,960495;0;41;Motors_Started;
100;25.08.2021 07:02;53,20753435;22,77307006;0;0;109,960495;109,960495;0,1;0;0,0252714;13;5;0;109,960495;0;0;0,0252714;0;0;0;92,90;8,6;-1,8;0;0;1024;1024;1024;1024;93,1;0;97;3,989;3,992;3,94;0;0;0;0;;109,960495;0;41;Motors_Started;
200;25.08.2021 07:02;53,20753431;22,77307026;0;0;109,960495;109,960495;0,1;0;0,0361077;13;5;0;109,960495;0;0;0,0361077;0;0;0;92,90;8,6;-1,9;0;0;1024;1024;1024;1024;93,1;0;97;3,989;3,992;3,94;0;0;0;0;;109,960495;0;41;Motors_Started;
300;25.08.2021 07:02;53,20753427;22,77307046;0;0;109,960495;109,960495;0,1;0;0,0485749;13;5;0;109,960495;0;0;0,0485749;0;0;0;92,90;8,6;-1,9;0;0;1024;1024;1024;1024;93,2;0;97;3,989;3,992;3,94;0;0;0;0;;109,960495;0;41;Motors_Started;
400;25.08.2021 07:02;53,20753422;22,7730706;0;-0,01;109,970495;109,960495;0,1;0;0,0575759;13;5;0;109,960495;0;0;0,0575759;0;0;0;92,90;8,6;-1,9;0;0;1024;1024;1024;1024;93,2;0;97;3,989;3,992;3,94;0;0;0;0;;109,960495;0;41;Motors_Started;
500;25.08.2021 07:02;53,20753419;22,77307079;0;-0,01;109,970495;109,960495;0,1;0;0,0703255;13;5;0;109,960495;0;0;0,0703255;0;0;0;92,90;8,6;-1,8;0;0;1024;1024;1024;1024;93,2;0;97;3,989;3,992;3,94;0;0;0;0;;109,960495;0;41;Motors_Started;
600;25.08.2021 07:02;53,20753428;22,77307097;0;-0,01;109,970495;109,960495;0,1;0;0,0824127;13;5;0;109,960495;0;0;0,0824127;0;0;0;92,90;8,6;-1,8;0;0;1024;1024;1024;1024;93,2;0;97;3,989;3,992;3,94;0;0;0;0;;109,960495;0;41;Motors_Started;
700;25.08.2021 07:02;53,20753426;22,77307115;0;-0,01;109,970495;109,960495;0,1;0;0,0943305;13;5;0;109,960495;0;0;0,0943305;0;0;0;92,90;8,6;-1,8;0;0;1024;1024;1024;1024;93,2;0;97;3,989;3,992;3,94;0;0;0;0;;109,960495;0;41;Motors_Started;
800;25.08.2021 07:02;53,20753418;22,77307135;0;-0,01;109,970495;109,960495;0,1;0;0,107684;13;5;0;109,960495;0;0;0,107684;0;0;0;92,90;8,6;-1,8;0;0;1024;1024;1024;1024;93,2;0;97;3,989;3,992;3,94;0;0;0;0;;109,960495;0;41;Motors_Started;Setting new Return-To-Home altitude to 30m (98 ft), Data Recorder File Index is 16, Setting new Maximum Flight Altitude to 120m (394 ft)
900;25.08.2021 07:02;53,20753415;22,77307152;0;-0,01;109,970495;109,960495;0,1;0;0,119011;13;5;11,921;109,960495;0;0;0,119011;0;0;0;92,90;8,6;-1,8;0;0;1024;1024;1024;1024;93,2;0;97;3,989;3,992;3,94;0;0;0;0;;109,960495;0;41;Motors_Started;
1000;25.08.2021 07:02;53,20753422;22,77307142;0;-0,01;109,970495;109,960495;0,1;0;0,112167;13;5;11,921;109,960495;0;0;0,119011;0;0;0;92,90;8,6;-1,8;0;0;1024;1024;1024;1024;93,2;0;97;3,989;3,992;3,94;0;0;0;0;;109,960495;0;41;Motors_Started;
1100;25.08.2021 07:02;53,20753421;22,77307157;0;-0,01;109,970495;109,960495;0,1;0;0,12232;13;5;11,921;109,960495;0;0;0,12232;0;0;0;92,90;8,7;-1,8;0;0;654;505;862;1296;93,2;0;97;3,989;3,992;3,94;0;0;0;0;;109,960495;0;41;Motors_Started;
1200;25.08.2021 07:02;53,20753441;22,77307184;0;-0,01;109,970495;109,960495;0,1;0;0,141785;13;5;11,921;109,960495;0;0;0,141785;0;0;0;92,90;8,6;-1,8;0;0;1024;1024;1024;1024;93,2;0;97;3,989;3,992;3,94;0;0;0;0;;109,960495;0;41;Motors_Started;
1300;25.08.2021 07:02;53,20753442;22,77307198;0;-0,01;109,970495;109,960495;0,1;0;0,151293;13;5;11,921;109,960495;0;0;0,151293;0;0;0;92,90;8,7;-1,9;0;0;1024;1024;1024;1024;93,2;0;97;3,989;3,992;3,94;0;0;0;0;;109,960495;0;41;Motors_Started;
1400;25.08.2021 07:02;53,20753458;22,77307132;0;0;109,960495;109,960495;0,1;0;0,112557;13;5;11,921;109,960495;0;0;0,151293;0;0;0;92,90;8,7;-1,9;0;0;1024;1024;1451;1024;93,2;0;97;3,989;3,992;3,94;0;0;0;0;;109,960495;0;41;Motors_Started;
1500;25.08.2021 07:02;53,20753456;22,77307114;0;0;109,960495;109,960495;0,1;0;0,100691;13;5;11,921;109,960495;0;0;0,151293;0;0;0;92,90;8,7;-1,9;0;0;1024;1024;1682;1024;93,2;0;97;3,989;3,992;3,94;0;0;0;0;;109,960495;0;10;Assisted_Takeoff;
1600;25.08.2021 07:02;53,20753459;22,77307117;0;0;109,960495;109,960495;0,1;0;0,103737;12;5;11,921;109,960495;0;0;0,151293;0;0;0;93,00;8,6;-1,8;0;0;1024;1024;1684;1024;93,2;0;97;3,989;3,992;3,94;0;0;0;0;;109,960495;0;10;Assisted_Takeoff;
1700;25.08.2021 07:02;53,20753469;22,77307106;0;0;109,960495;109,960495;0,1;0;0,10217;12;5;11,921;109,960495;0;0;0,151293;0;0;0;93,00;8,3;-1,6;0;0;1024;1024;1684;1024;93,2;0;97;3,989;3,992;3,94;0;0;0;0;;109,960495;0;10;Assisted_Takeoff;
1800;25.08.2021 07:02;53,20753473;22,77307106;0;0;109,960495;109,960495;0,1;0;0,104669;13;5;11,921;109,960495;0;0;0,151293;0;0;0;93,00;7,6;-1,3;0;0;1024;1024;1684;1024;93,2;0;97;3,989;3,992;3,94;0;0;0;0;;109,960495;0;10;Assisted_Takeoff;
1900;25.08.2021 07:02;53,20753477;22,77307107;0;0;109,960495;109,960495;0,1;0;0,10735;13;5;11,921;109,960495;0;0;0,151293;0;0;0;93,20;6,6;-1,1;0;0;1024;1024;1684;1024;93,2;0;97;3,989;3,992;3,94;0;0;0;0;;109,960495;0;10;Assisted_Takeoff;
2000;25.08.2021 07:02;53,20753472;22,77307128;0;0;109,960495;109,960495;0,1;0;0,116113;13;5;12,099;109,960495;0;0;0,151293;0;0;-0,36;93,50;4,4;-1,4;0;0;1024;1024;1684;1024;93,2;0;97;4,083;4,036;3,98;0;0;0;0;;109,960495;0;10;Assisted_Takeoff;
2100;25.08.2021 07:02;53,20753484;22,77307144;0;0;109,960495;109,960495;0,1;0;0,132057;13;5;12,099;109,960495;0;0;0,151293;0;0;-0,72;93,80;1,9;-1,4;0;0;1024;1024;1684;1024;93,2;0;97;4,083;4,036;3,98;0;0;0;0;;109,960495;0;10;Assisted_Takeoff;
2200;25.08.2021 07:02;53,20753494;22,77307137;0,1;0,1;109,960495;110,060495;0,1;0;0,134128;13;5;12,099;110,060495;0,1;0;0,151293;0;0;-1,44;93,40;0,7;-0,1;0;0;1024;1024;1684;1024;93,2;0;97;4,083;4,036;3,98;0;0;0;0;;110,060495;0,1;6;P-GPS;
2300;25.08.2021 07:02;53,20753504;22,77307127;0,1;0,1;109,960495;110,060495;0,2;0;0,136207;13;5;12,099;110,060495;0,1;0;0,151293;0;0;-2,52;93,20;-0,1;1,2;0;0;1024;1024;1684;1024;93,2;0;97;4,083;4,036;3,98;0;0;0;0;;110,060495;0,1;6;P-GPS;
2400;25.08.2021 07:02;53,20753498;22,77307142;0,2;0,2;109,960495;110,160495;0,2;0;0,139748;13;5;12,099;110,160495;0,2;0;0,151293;0;0;-3,24;93,10;-0,1;1,2;0;0;1024;1024;1684;1024;93,2;0;97;4,083;4,036;3,98;0;0;0;0;;110,160495;0,2;6;P-GPS;
2500;25.08.2021 07:02;53,20753524;22,77307097;0,3;0,3;109,960495;110,260495;0,2;0,36;0,139027;13;5;12,099;110,260495;0,3;0,36;0,151293;0;-0,36;-3,96;93,10;-0,7;-0,6;0;0;1024;1024;1684;1024;93,2;0;97;4,083;4,036;3,98;0;0;0;0;;110,260495;0,3;6;P-GPS;
2600;25.08.2021 07:02;53,20753529;22,77307077;0,4;0,4;109,960495;110,360495;0,3;0,36;0,136379;13;5;12,099;110,360495;0,4;0,36;0,151293;0;-0,36;-4,68;93,30;-1,1;-1,4;0;0;1024;1024;1684;1024;93,2;0;97;4,083;4,036;3,98;0;0;0;0;;110,360495;0,4;6;P-GPS;
2700;25.08.2021 07:02;53,20753535;22,77307054;0,6;0,6;109,960495;110,560495;0,4;0,36;0,135814;13;5;12,099;110,560495;0,6;0,36;0,151293;0;-0,36;-5,76;93,40;-2,2;-0,1;0;0;1024;1024;1684;1024;93,2;0;97;4,083;4,036;3,98;0;0;0;0;;110,560495;0,6;6;P-GPS;
2800;25.08.2021 07:02;53,20753477;22,77307066;0,8;0,8;109,960495;110,760495;0,6;0,36;0,0859999;13;5;12,099;110,760495;0,8;0,36;0,151293;0;-0,36;-6,48;93,50;-3,3;-0,4;0;0;1024;1024;1679;1024;93,2;0;97;4,083;4,036;3,98;0;0;0;0;;110,760495;0,8;6;P-GPS;
2900;25.08.2021 07:02;53,20753473;22,77307045;1;1;109,960495;110,960495;0,8;0,36;0,0735425;13;5;12,099;110,960495;1;0,36;0,151293;0;-0,36;-6,84;93,50;-3,8;-1;0;0;1024;1024;1633;1024;93,2;0;97;4,083;4,036;3,98;0;0;0;0;;110,960495;1;6;P-GPS;
3000;25.08.2021 07:02;53,20753454;22,77306981;1,2;1,2;109,960495;111,160495;1;0;0,0346162;12;5;12,099;111,160495;1,2;0,36;0,151293;0;0;-7,2;93,40;-3,6;-1,6;0;0;1024;1024;1587;1024;93,2;0;97;4,083;4,036;3,98;0;0;0;0;;111,160495;1,2;6;P-GPS;
3100;25.08.2021 07:02;53,20753446;22,77306963;1,4;1,4;109,960495;111,360495;1,1;0,36;0,0262073;12;5;12,099;111,360495;1,4;0,36;0,151293;-0,36;0;-7,2;93,40;-3,3;-2,6;0;0;1024;1024;1506;1024;93,2;0;97;4,083;4,036;3,98;0;0;0;0;;111,360495;1,4;6;P-GPS;
3200;25.08.2021 07:02;53,20753409;22,77306934;1,6;1,6;109,960495;111,560495;1,3;0,36;0,0308598;13;5;12,099;111,560495;1,6;0,36;0,151293;-0,36;0;-6,84;93,40;-2,7;-3,4;0;0;1024;1024;1582;1024;93,2;0;97;4,083;4,036;3,98;0;0;0;0;;111,560495;1,6;6;P-GPS;
3300;25.08.2021 07:02;53,20753399;22,77306918;1,8;1,8;109,960495;111,760495;1,5;0;0,0457587;13;5;12,099;111,760495;1,8;0,36;0,151293;0;0;-6,48;93,40;-2,5;-3,1;0;0;1024;1024;1640;1024;93,2;0;97;4,083;4,036;3,98;0;0;0;0;;111,760495;1,8;6;P-GPS;
3400;25.08.2021 07:02;53,20753384;22,77306917;1,9;1,9;109,960495;111,860495;1,7;0;0,0572041;13;5;12,099;111,860495;1,9;0,36;0,151293;0;0;-5,76;93,30;-2,5;-2,8;0;0;1024;1024;1664;1024;93,2;0;97;4,083;4,036;3,98;0;0;0;0;;111,860495;1,9;6;P-GPS;
3500;25.08.2021 07:02;53,20753375;22,77306903;2,1;2,1;109,960495;112,060495;1,8;0;0,0705337;13;5;12,099;112,060495;2,1;0,36;0,151293;0;0;-5,76;93,40;-2,2;-3;0;0;1024;1024;1669;1024;93,2;0;97;4,083;4,036;3,98;0;0;0;0;;112,060495;2,1;6;P-GPS;
3600;25.08.2021 07:02;53,20753372;22,77306851;2,3;2,3;109,960495;112,260495;2;0;0,0991346;14;5;12,099;112,260495;2,3;0,36;0,151293;0;0;-5,76;93,30;-2,2;-2,9;0;0;1024;1024;1652;1024;93,2;0;97;4,083;4,036;3,98;0;0;0;0;;112,260495;2,3;6;P-GPS;
3700;25.08.2021 07:02;53,20753366;22,7730684;2,4;2,4;109,960495;112,360495;2,2;0;0,109407;14;5;12,099;112,360495;2,4;0,36;0,151293;0;0;-5,76;93,20;-2,1;-2,4;0;0;1024;1024;1566;1024;93,2;0;97;4,083;4,036;3,98;0;0;0;0;;112,360495;2,4;6;P-GPS;
3800;25.08.2021 07:02;53,20753374;22,77306856;2,6;2,6;109,960495;112,560495;2,3;0;0,0955944;14;5;12,099;112,560495;2,6;0,36;0,151293;0;0;-6,12;93,10;-1,9;-2,5;0;0;1024;1024;1628;1024;93,2;0;97;4,083;4,036;3,98;0;0;0;0;;112,560495;2,6;6;P-GPS;
3900;25.08.2021 07:02;53,2075337;22,77306851;2,8;2,8;109,960495;112,760495;2,5;0;0,100192;14;5;11,145;112,760495;2,8;0,36;0,151293;0;0;-6,12;93,20;-1,7;-1,8;0;0;1024;1024;1662;1024;93,2;0;97;3,729;3,73;3,686;0;0;0;0;;112,760495;2,8;6;P-GPS;
4000;25.08.2021 07:02;53,20753405;22,77306903;3;3;109,960495;112,960495;2,6;0;0,050935;15;5;11,145;112,960495;3;0,36;0,151293;0;0;-5,76;93,20;-1,8;-1,9;0;0;1088;1024;1658;1024;93,2;0;97;3,729;3,73;3,686;0;0;0;0;;112,960495;3;6;P-GPS;
4100;25.08.2021 07:02;53,20753405;22,77306904;3,1;3,1;109,960495;113,060495;2,7;0;0,049983;15;5;11,145;113,060495;3,1;0,36;0,151293;0;0;-6,12;93,30;-2;-1,9;0;0;1088;1024;1658;1024;93,2;0;97;3,729;3,73;3,686;0;0;0;0;;113,060495;3,1;6;P-GPS;
4200;25.08.2021 07:02;53,20753396;22,77306902;3,3;3,3;109,960495;113,260495;2,9;0;0,0559377;15;5;11,145;113,260495;3,3;0,36;0,151293;0;0;-6,12;93,30;-1,8;-1,8;0;0;1024;1024;1679;1024;93,2;0;97;3,729;3,73;3,686;0;0;0;0;;113,260495;3,3;6;P-GPS;
4300;25.08.2021 07:02;53,20753426;22,77306923;3,5;3,5;109,960495;113,460495;3;0;0,0341659;15;5;11,145;113,460495;3,5;0,36;0,151293;0;0;-6,48;93,30;-1,8;-1,6;0;0;1024;1024;1679;1024;93,2;0;97;3,729;3,73;3,686;0;0;0;0;;113,460495;3,5;6;P-GPS;
4400;25.08.2021 07:02;53,20753429;22,77306931;3,7;3,7;109,960495;113,660495;3,2;0;0,0289119;15;5;11,145;113,660495;3,7;0,36;0,151293;0;0;-6,48;93,30;-2;-1,1;0;0;1024;1024;1676;1024;93,2;0;97;3,729;3,73;3,686;0;0;0;0;;113,660495;3,7;6;P-GPS;
4500;25.08.2021 07:02;53,2075343;22,77306942;3,9;3,9;109,960495;113,860495;3,4;0;0,0223101;15;5;11,145;113,860495;3,9;0,36;0,151293;0;0;-6,84;93,30;-0,6;-1,1;0;0;1024;1024;1680;1024;93,2;0;97;3,729;3,73;3,686;0;0;0;0;;113,860495;3,9;6;P-GPS;
4600;25.08.2021 07:02;53,20753452;22,77306958;4,1;4,1;109,960495;114,060495;3,6;0;0,0339029;15;5;11,145;114,060495;4,1;0,36;0,151293;0;0;-6,84;93,30;-0,1;-1,7;0;0;1024;1024;1680;1024;93,2;0;97;3,729;3,73;3,686;0;0;0;0;;114,060495;4,1;6;P-GPS;
4700;25.08.2021 07:02;53,20753453;22,77306967;4,3;4,3;109,960495;114,260495;3,8;0;0,0335976;15;5;11,145;114,260495;4,3;0,36;0,151293;0;0;-6,84;93,30;-0,1;-1,8;0;0;1024;1024;1676;1024;93,2;0;97;3,729;3,73;3,686;0;0;0;0;;114,260495;4,3;6;P-GPS;
4800;25.08.2021 07:02;53,2075344;22,77306979;4,4;4,4;109,960495;114,360495;4;0;0,0191436;15;5;11,145;114,360495;4,4;0,36;0,151293;0;0;-7,2;93,20;-0,1;-1,8;0;0;1024;1024;1684;1024;93,2;0;96;3,729;3,73;3,686;0;0;0;0;;114,360495;4,4;6;P-GPS;
4900;25.08.2021 07:02;53,20753439;22,77306984;4,7;4,7;109,960495;114,660495;4,1;0;0,0195646;15;5;11,22;114,660495;4,7;0,36;0,151293;0;0;-7,2;93,20;-0,1;-1,7;0;0;1024;1024;1684;1024;93,2;0;96;3,753;3,755;3,712;0;0;0;0;;114,660495;4,7;6;P-GPS;
5000;25.08.2021 07:02;53,20753436;22,77307029;4,9;4,9;109,960495;114,860495;4,4;0;0,0396053;15;5;11,22;114,860495;4,9;0,36;0,151293;0;0;-6,84;93,30;-0,3;-1,4;0;0;1024;1024;1684;1024;93,2;0;96;3,753;3,755;3,712;0;0;0;0;;114,860495;4,9;6;P-GPS;
5100;25.08.2021 07:02;53,20753435;22,77307035;5,1;5,1;109,960495;115,060495;4,6;0;0,0434022;15;5;11,22;115,060495;5,1;0,36;0,151293;0;0;-7,2;93,20;-0,2;-1,4;0;0;1024;1024;1684;1024;93,2;0;96;3,753;3,755;3,712;0;0;0;0;;115,060495;5,1;6;P-GPS;
5200;25.08.2021 07:02;53,2075345;22,77307023;5,3;5,3;109,960495;115,260495;4,8;0;0,0447604;15;5;11,22;115,260495;5,3;0,36;0,151293;0;0;-7,2;93,10;-0,4;-1,9;0;0;1024;1024;1675;1024;93,2;0;96;3,753;3,755;3,712;0;0;0;0;;115,260495;5,3;6;P-GPS;
5300;25.08.2021 07:02;53,20753449;22,77307029;5,5;5,5;109,960495;115,460495;5;0;0,0466102;15;5;11,22;115,460495;5,5;0,36;0,151293;0;0;-7,2;93,20;-0,3;-2,5;0;0;1024;1024;1678;1024;93,2;0;96;3,753;3,755;3,712;0;0;0;0;;115,460495;5,5;6;P-GPS;
5400;25.08.2021 07:02;53,20753446;22,77307015;5,7;5,7;109,960495;115,660495;5,2;0;0,0372299;15;5;11,22;115,660495;5,7;0,36;0,151293;0;0;-7,2;93,20;-0,1;-2,6;0;0;1024;1024;1678;1024;93,2;0;96;3,753;3,755;3,712;0;0;0;0;;115,660495;5,7;6;P-GPS;
5500;25.08.2021 07:02;53,20753445;22,77307019;5,9;5,9;109,960495;115,860495;5,4;0;0,0388764;15;5;11,22;115,860495;5,9;0,36;0,151293;0;0;-7,2;93,30;-0,1;-2,8;0;0;1024;1024;1677;1024;93,2;0;96;3,753;3,755;3,712;0;0;0;0;;115,860495;5,9;6;P-GPS;
5600;25.08.2021 07:02;53,20753447;22,7730698;6,1;6,1;109,960495;116,060495;5,6;0;0,0269443;14;5;11,22;116,060495;6,1;0,36;0,151293;0;0;-6,84;93,20;0,1;-2,3;0;0;1024;1024;1678;1024;93,2;0;96;3,753;3,755;3,712;0;0;0;0;;116,060495;6,1;6;P-GPS;
5700;25.08.2021 07:02;53,20753448;22,7730698;6,3;6,3;109,960495;116,260495;5,8;0;0,0277803;14;5;11,22;116,260495;6,3;0,36;0,151293;0;0;-6,84;93,20;0,4;-2,3;0;0;1024;1024;1679;1024;93,2;0;96;3,753;3,755;3,712;0;0;0;0;;116,260495;6,3;6;P-GPS;
5800;25.08.2021 07:02;53,20753452;22,77306946;6,5;6,51;109,950495;116,460495;6;0;0,0374154;15;5;11,22;116,460495;6,5;0,36;0,151293;0;0;-6,84;93,20;0,4;-2,6;0;0;1024;1024;1682;1024;93,2;0;96;3,753;3,755;3,712;0;0;0;0;;116,460495;6,5;6;P-GPS;
5900;25.08.2021 07:02;53,20753455;22,77306941;6,7;6,71;109,950495;116,660495;6,3;0;0,0415401;15;5;11,227;116,660495;6,7;0,36;0,151293;0;0;-6,84;93,20;0,2;-2,3;0;0;1024;1024;1682;1024;93,2;0;96;3,762;3,756;3,709;0;0;0;0;;116,660495;6,7;6;P-GPS;
6000;25.08.2021 07:02;53,20753441;22,77306941;6,9;6,9;109,960495;116,860495;6,5;0;0,0296633;15;5;11,227;116,860495;6,9;0,36;0,151293;0;0;-6,84;93,20;0;-2;0;0;1024;1024;1682;1024;93,2;0;96;3,762;3,756;3,709;0;0;0;0;;116,860495;6,9;6;P-GPS;
6100;25.08.2021 07:02;53,20753443;22,77306934;7,1;7,1;109,960495;117,060495;6,8;0;0,0346127;15;5;11,227;117,060495;7,1;0,36;0,151293;0;0;-7,2;93,20;0;-1,6;0;0;1024;1024;1682;1024;93,2;0;96;3,762;3,756;3,709;0;0;0;0;;117,060495;7,1;6;P-GPS;
6200;25.08.2021 07:02;53,20753429;22,77306858;7,3;7,3;109,960495;117,260495;7;0;0,0773071;15;5;11,227;117,260495;7,3;0,36;0,151293;0;0;-7,2;93,20;0;-1,6;0;0;1024;1024;1683;1024;93,2;0;96;3,762;3,756;3,709;0;0;0;0;;117,260495;7,3;6;P-GPS;
6300;25.08.2021 07:02;53,20753428;22,77306844;7,5;7,5;109,960495;117,460495;7,2;0;0,086399;15;5;11,227;117,460495;7,5;0,36;0,151293;0;0;-7,2;93,20;0;-2,1;0;0;1024;1024;1684;1024;93,2;0;96;3,762;3,756;3,709;0;0;0;0;;117,460495;7,5;6;P-GPS;
6400;25.08.2021 07:02;53,20753425;22,77306865;7,7;7,7;109,960495;117,660495;7,4;0;0,072418;15;5;11,227;117,660495;7,7;0,36;0,151293;0;0;-6,84;93,20;0,1;-2,6;0;0;1024;1024;1680;1024;93,2;0;96;3,762;3,756;3,709;0;0;0;0;;117,660495;7,7;6;P-GPS;
6500;25.08.2021 07:02;53,20753423;22,77306854;7,9;7,9;109,960495;117,860495;7,7;0;0,0798131;15;5;11,227;117,860495;7,9;0,36;0,151293;0;0;-6,84;93,20;0;-3;0;0;1024;1024;1678;1024;93,2;0;96;3,762;3,756;3,709;0;0;0;0;;117,860495;7,9;6;P-GPS;
6600;25.08.2021 07:02;53,2075342;22,7730686;8,1;8,1;109,960495;118,060495;8;0;0,0758125;15;5;11,227;118,060495;8,1;0,36;0,151293;0;0;-7,2;93,20;0,3;-3,4;0;0;1024;1024;1663;1024;93,2;0;96;3,762;3,756;3,709;0;0;0;0;;118,060495;8,1;6;P-GPS;
6700;25.08.2021 07:02;53,2075342;22,77306852;8,3;8,3;109,960495;118,260495;8,1;0;0,0807908;15;5;11,227;118,260495;8,3;0,36;0,151293;0;0;-6,84;93,10;0,8;-3,2;0;0;1024;1024;1663;1024;93,2;0;96;3,762;3,756;3,709;0;0;0;0;;118,260495;8,3;6;P-GPS;
6800;25.08.2021 07:02;53,20753428;22,77306846;8,5;8,5;109,960495;118,460495;8,3;0;0,0853765;15;5;11,227;118,460495;8,5;0,36;0,151293;0;0;-6,84;93,10;0,9;-2,4;0;0;1024;1024;1663;1024;93,2;0;96;3,762;3,756;3,709;0;0;0;0;;118,460495;8,5;6;P-GPS;
6900;25.08.2021 07:02;53,20753431;22,77306838;8,7;8,7;109,960495;118,660495;8,5;0;0,0905815;15;5;11,222;118,660495;8,7;0,36;0,151293;0;0;-6,84;93,20;1,2;-2,2;0;0;1024;1024;1663;1024;93,2;0;96;3,757;3,757;3,708;0;0;0;0;;118,660495;8,7;6;P-GPS;
7000;25.08.2021 07:02;53,20753438;22,77306859;8,9;8,9;109,960495;118,860495;8,7;0;0,0783997;14;5;11,222;118,860495;8,9;0,36;0,151293;0;0;-6,84;93,10;1,1;-2;0;0;1024;1024;1663;1024;93,2;0;96;3,757;3,757;3,708;0;0;0;0;;118,860495;8,9;6;P-GPS;
7100;25.08.2021 07:02;53,2075344;22,77306853;9,1;9,1;109,960495;119,060495;8,9;0;0,0827837;14;5;11,222;119,060495;9,1;0,36;0,151293;0;0;-6,84;93,20;1,2;-2,5;0;0;1024;1024;1669;1024;93,2;0;96;3,757;3,757;3,708;0;0;0;0;;119,060495;9,1;6;P-GPS;
7200;25.08.2021 07:02;53,20753451;22,77306799;9,2;9,21;109,950495;119,160495;9,1;0;0,120237;14;5;11,222;119,160495;9,2;0,36;0,151293;0;0;-6,84;93,20;1,3;-2,9;0;0;1024;1024;1676;1024;93,2;0;96;3,757;3,757;3,708;0;0;0;0;;119,160495;9,2;6;P-GPS;
7300;25.08.2021 07:02;53,20753454;22,77306789;9,4;9,41;109,950495;119,360495;9,1;0;0,127696;14;5;11,222;119,360495;9,4;0,36;0,151293;0;0;-6,84;93,20;1,1;-2,6;0;0;1024;1024;1674;1024;93,2;0;96;3,757;3,757;3,708;0;0;0;0;;119,360495;9,4;6;P-GPS;
7400;25.08.2021 07:02;53,20753459;22,77306808;9,6;9,61;109,950495;119,560495;9,1;0;0,11728;14;5;11,222;119,560495;9,6;0,36;0,151293;0;0;-6,84;93,20;1,4;-3,1;0;0;1024;1024;1675;1024;93,2;0;96;3,757;3,757;3,708;0;0;0;0;;119,560495;9,6;6;P-GPS;
7500;25.08.2021 07:02;53,20753462;22,77306804;9,8;9,81;109,950495;119,760495;9,1;0;0,121106;14;5;11,222;119,760495;9,8;0,36;0,151293;0;0;-6,84;93,20;2,3;-3,2;0;0;1024;1024;1675;1024;93,2;0;96;3,757;3,757;3,708;0;0;0;0;;119,760495;9,8;6;P-GPS;
7600;25.08.2021 07:02;53,20753458;22,77306794;10;10,01;109,950495;119,960495;9,1;0;0,125564;14;5;11,222;119,960495;10;0,36;0,151293;0;0;-6,84;93,10;2,8;-2,4;0;0;1024;1024;1669;1024;93,2;0;96;3,757;3,757;3,708;0;0;0;0;;119,960495;10;6;P-GPS;
7700;25.08.2021 07:02;53,20753461;22,77306789;10,2;10,21;109,950495;120,160495;9,1;0;0,130307;14;5;11,222;120,160495;10,2;0,36;0,151293;0;0;-6,84;93,10;3,2;-2,4;0;0;1024;1024;1670;1024;93,2;0;96;3,757;3,757;3,708;0;0;0;0;;120,160495;10,2;6;P-GPS;
7800;25.08.2021 07:02;53,20753473;22,77306835;10,4;10,41;109,950495;120,360495;9,1;0;0,107666;14;5;11,222;120,360495;10,4;0,36;0,151293;0;0;-6,84;93,20;3,3;-2,8;0;0;1024;1024;1665;1024;93,2;0;96;3,757;3,757;3,708;0;0;0;0;;120,360495;10,4;6;P-GPS;
7900;25.08.2021 07:02;53,20753478;22,77306828;10,6;10,61;109,950495;120,560495;9,1;0;0,114345;14;5;11,212;120,560495;10,6;0,36;0,151293;0;0;-6,84;93,30;2,8;-3,5;0;0;1024;1024;1666;1024;93,2;0;96;3,75;3,747;3,715;0;0;0;0;;120,560495;10,6;6;P-GPS;
8000;25.08.2021 07:02;53,20753473;22,77306801;10,8;10,81;109,950495;120,760495;9,1;0;0,127855;14;5;11,212;120,760495;10,8;0,36;0,151293;0;0;-6,84;93,30;1,4;-2,5;0;0;1024;1024;1665;1024;93,2;0;96;3,75;3,747;3,715;0;0;0;0;;120,760495;10,8;6;P-GPS;
8100;25.08.2021 07:02;53,20753481;22,77306789;11;11,01;109,950495;120,960495;9,1;0;0,138967;14;5;11,212;120,960495;11;0,36;0,151293;0;0;-6,84;93,10;1,4;-1,6;0;0;1024;1024;1666;1024;93,2;0;96;3,75;3,747;3,715;0;0;0;0;;120,960495;11;6;P-GPS;
8200;25.08.2021 07:02;53,20753494;22,77306789;11,2;11,21;109,950495;121,160495;9,1;0;0,146417;15;5;11,212;121,160495;11,2;0,36;0,151293;0;0;-6,84;93,20;2,1;-0,5;0;0;1024;1024;1666;1024;93,2;0;96;3,75;3,747;3,715;0;0;0;0;;121,160495;11,2;6;P-GPS;
8300;25.08.2021 07:02;53,20753501;22,77306776;11,4;11,41;109,950495;121,360495;9,1;0;0,157637;15;5;11,212;121,360495;11,4;0,36;0,157637;0;0;-6,84;93,30;2,3;-0,7;0;0;1024;1024;1667;1024;93,2;0;96;3,75;3,747;3,715;0;0;0;0;;121,360495;11,4;6;P-GPS;
8400;25.08.2021 07:02;53,20753506;22,7730673;11,5;11,52;109,940495;121,460495;9,1;0;0,18629;15;5;11,212;121,460495;11,5;0,36;0,18629;0;0;-6,84;93,30;2;-1;0;0;1024;1024;1666;1024;93,2;0;96;3,75;3,747;3,715;0;0;0;0;;121,460495;11,5;6;P-GPS;
8500;25.08.2021 07:02;53,20753509;22,77306709;11,7;11,72;109,940495;121,660495;9,1;0;0,200328;15;5;11,212;121,660495;11,7;0,36;0,200328;0;0;-6,84;93,30;1,6;-1;0;0;1024;1024;1667;1024;93,2;0;96;3,75;3,747;3,715;0;0;0;0;;121,660495;11,7;6;P-GPS;
8600;25.08.2021 07:02;53,20753515;22,77306696;11,9;11,92;109,940495;121,860495;9,1;0;0,210925;15;5;11,212;121,860495;11,9;0,36;0,210925;0;0;-6,84;93,30;1,1;-1,4;0;0;1024;1024;1667;1024;93,2;0;96;3,75;3,747;3,715;0;0;0;0;;121,860495;11,9;6;P-GPS;
8700;25.08.2021 07:02;53,20753514;22,77306675;12,1;12,12;109,940495;122,060495;9,1;0;0,223022;15;5;11,212;122,060495;12,1;0,36;0,223022;0;0;-6,84;93,20;0,9;-2,4;0;0;1024;1024;1667;1024;93,2;0;96;3,75;3,747;3,715;0;0;0;0;;122,060495;12,1;6;P-GPS;
8800;25.08.2021 07:02;53,20753491;22,77306626;12,3;12,32;109,940495;122,260495;9,1;0;0,243567;15;5;11,212;122,260495;12,3;0,36;0,243567;0;0;-6,84;93,10;0,1;-3,9;0;0;1024;1024;1667;1024;93,2;0;96;3,75;3,747;3,715;0;0;0;0;;122,260495;12,3;6;P-GPS;
8900;25.08.2021 07:02;53,20753488;22,773066;12,5;12,52;109,940495;122,460495;9,1;0;0,258932;15;5;11,147;122,460495;12,5;0,36;0,258932;0;0;-6,84;93,10;0;-4,1;0;0;1024;1024;1667;1024;93,2;0;96;3,737;3,73;3,68;0;0;0;0;;122,460495;12,5;6;P-GPS;
9000;25.08.2021 07:02;53,20753502;22,77306599;12,7;12,72;109,940495;122,660495;9,1;0;0,264342;15;5;11,147;122,660495;12,7;0,36;0,264342;0;0;-6,84;93,10;0,5;-2,9;0;0;1024;1024;1667;1024;93,2;0;96;3,737;3,73;3,68;0;0;0;0;;122,660495;12,7;6;P-GPS;
9100;25.08.2021 07:02;53,20753505;22,77306575;12,9;12,92;109,940495;122,860495;9,1;0;0,280934;15;5;11,147;122,860495;12,9;0,36;0,280934;0;0;-6,84;93,20;0,2;-2;0;0;1024;1024;1666;1024;93,2;0;96;3,737;3,73;3,68;0;0;0;0;;122,860495;12,9;6;P-GPS;
9200;25.08.2021 07:02;53,20753487;22,77306541;13,1;13,12;109,940495;123,060495;9,1;0;0,29654;15;5;11,147;123,060495;13,1;0,36;0,29654;0;0;-6,84;93,30;-0,3;-1,4;0;0;1024;1024;1666;1024;93,2;0;96;3,737;3,73;3,68;0;0;0;0;;123,060495;13,1;6;P-GPS;
9300;25.08.2021 07:02;53,20753487;22,77306514;13,3;13,32;109,940495;123,260495;9,1;0;0,314302;15;5;11,147;123,260495;13,3;0,36;0,314302;0;0;-6,84;93,20;-0,9;-1,7;0;0;1024;1024;1666;1024;93,2;0;96;3,737;3,73;3,68;0;0;0;0;;123,260495;13,3;6;P-GPS;
9400;25.08.2021 07:02;53,20753505;22,77306485;13,4;13,42;109,940495;123,360495;9,1;0;0,337927;15;5;11,147;123,360495;13,4;0,36;0,337927;0;0;-6,84;93,20;-1;-2,7;0;0;1024;1024;1665;1024;93,2;0;96;3,737;3,73;3,68;0;0;0;0;;123,360495;13,4;6;P-GPS;
9500;25.08.2021 07:02;53,20753504;22,77306462;13,6;13,62;109,940495;123,560495;9,1;0;0,352509;15;5;11,147;123,560495;13,6;0,36;0,352509;0;0;-6,84;93,30;-0,4;-3,2;0;0;1024;1024;1663;1024;93,2;0;96;3,737;3,73;3,68;0;0;0;0;;123,560495;13,6;6;P-GPS;
9600;25.08.2021 07:02;53,2075351;22,77306431;13,8;13,83;109,930495;123,760495;9,1;0;0,373806;15;5;11,147;123,760495;13,8;0,36;0,373806;0;0;-6,84;93,20;0;-3;0;0;1024;1024;1662;1024;93,2;0;96;3,737;3,73;3,68;0;0;0;0;;123,760495;13,8;6;P-GPS;
9700;25.08.2021 07:02;53,20753511;22,77306412;14;14,03;109,930495;123,960495;9,1;0;0,386527;15;5;11,147;123,960495;14;0,36;0,386527;0;0;-6,48;93,20;0,1;-2,7;0;0;1024;1024;1662;1024;93,2;0;96;3,737;3,73;3,68;0;0;0;0;;123,960495;14;6;P-GPS;
9800;25.08.2021 07:02;53,20753508;22,77306403;14,1;14,13;109,930495;124,060495;9,1;0;0,391332;15;5;11,147;124,060495;14,1;0,36;0,391332;0;0;-6,48;93,20;0,2;-2,4;0;0;1024;1024;1663;1024;93,2;0;96;3,737;3,73;3,68;0;0;0;0;;124,060495;14,1;6;P-GPS;
9900;25.08.2021 07:02;53,20753507;22,77306386;14,3;14,33;109,930495;124,260495;9,1;0;0,402612;15;5;11,102;124,260495;14,3;0,36;0,402612;0;0;-6,84;93,20;0,3;-2,5;0;0;1024;1024;1664;1024;93,2;0;96;3,724;3,712;3,666;0;0;0;0;;124,260495;14,3;6;P-GPS;
10000;25.08.2021 07:02;53,20753506;22,77306339;14,5;14,53;109,930495;124,460495;9,1;0;0,432804;15;5;11,102;124,460495;14,5;0,36;0,432804;0;0;-6,84;93,20;0,1;-2,8;0;0;1024;1024;1663;1024;93,2;0;96;3,724;3,712;3,666;0;0;0;0;;124,460495;14,5;6;P-GPS;
10100;25.08.2021 07:02;53,20753504;22,77306319;14,7;14,73;109,930495;124,660495;9,1;0;0,445081;15;5;11,102;124,660495;14,7;0,36;0,445081;0;0;-6,84;93,20;0;-3;0;0;1024;1024;1663;1024;93,2;0;96;3,724;3,712;3,666;0;0;0;0;;124,660495;14,7;6;P-GPS;
10200;25.08.2021 07:02;53,20753501;22,77306318;14,9;14,93;109,930495;124,860495;9,1;0;0,444804;15;5;11,102;124,860495;14,9;0,36;0,445081;0;0;-6,48;93,20;0;-3,2;0;0;1024;1024;1663;1024;93,2;0;96;3,724;3,712;3,666;0;0;0;0;;124,860495;14,9;6;P-GPS;
10300;25.08.2021 07:02;53,20753498;22,77306303;15;15,03;109,930495;124,960495;9,1;0;0,454208;15;5;11,102;124,960495;15;0,36;0,454208;0;0;-6,48;93,30;0,5;-3,5;0;0;1024;1024;1663;1024;93,2;0;96;3,724;3,712;3,666;0;0;0;0;;124,960495;15;6;P-GPS;
10400;25.08.2021 07:02;53,20753499;22,77306285;15,2;15,23;109,930495;125,160495;9,1;0;0,466561;15;5;11,102;125,160495;15,2;0,36;0,466561;0;0;-6,48;93,30;0,4;-3,6;0;0;1024;1024;1662;1024;93,2;0;96;3,724;3,712;3,666;0;0;0;0;;125,160495;15,2;6;P-GPS;
10500;25.08.2021 07:02;53,20753497;22,7730627;15,4;15,43;109,930495;125,360495;9,1;0;0,475502;15;5;11,102;125,360495;15,4;0,36;0,475502;0;0;-6,48;93,20;0,5;-3,5;0;0;1024;1024;1662;1024;93,2;0;96;3,724;3,712;3,666;0;0;0;0;;125,360495;15,4;6;P-GPS;
10600;25.08.2021 07:02;53,20753503;22,77306281;15,6;15,63;109,930495;125,560495;9,1;0;0,469946;15;5;11,102;125,560495;15,6;0,36;0,475502;0;0;-6,48;93,10;0,6;-3,2;0;0;1024;1024;1663;1024;93,2;0;96;3,724;3,712;3,666;0;0;0;0;;125,560495;15,6;6;P-GPS;
10700;25.08.2021 07:02;53,20753504;22,77306268;15,8;15,83;109,930495;125,760495;9,1;0;0,478196;15;5;11,102;125,760495;15,8;0,36;0,478196;0;0;-6,48;93,10;0,6;-3;0;0;1024;1024;1663;1024;93,2;0;96;3,724;3,712;3,666;0;0;0;0;;125,760495;15,8;6;P-GPS;
10800;25.08.2021 07:02;53,20753496;22,77306266;15,9;15,93;109,930495;125,860495;9,1;0;0,477821;15;5;11,102;125,860495;15,9;0,36;0,478196;0;0;-6,48;93,20;0,7;-3,2;0;0;1024;1024;1665;1024;93,2;0;96;3,724;3,712;3,666;0;0;0;0;;125,860495;15,9;6;P-GPS;
10900;25.08.2021 07:02;53,20753498;22,77306254;16,1;16,13;109,930495;126,060495;9,1;0;0,486143;15;5;11,137;126,060495;16,1;0,36;0,486143;0;0;-6,48;93,20;0,7;-2,8;0;0;1024;1024;1665;1024;93,2;0;96;3,73;3,728;3,679;0;0;0;0;;126,060495;16,1;6;P-GPS;
11000;25.08.2021 07:02;53,2075352;22,77306244;16,3;16,34;109,920495;126,260495;9,1;0;0,497494;15;5;11,137;126,260495;16,3;0,36;0,497494;0;0;-6,48;93,20;0,5;-2,4;0;0;1024;1024;1665;1024;93,2;0;96;3,73;3,728;3,679;0;0;0;0;;126,260495;16,3;6;P-GPS;
11100;25.08.2021 07:02;53,20753524;22,77306231;16,5;16,54;109,920495;126,460495;9,1;0;0,507101;15;5;11,137;126,460495;16,5;0,36;0,507101;0;0;-6,48;93,30;0,4;-2,8;0;0;1024;1024;1665;1024;93,2;0;96;3,73;3,728;3,679;0;0;0;0;;126,460495;16,5;6;P-GPS;
11200;25.08.2021 07:02;53,20753523;22,77306206;16,6;16,64;109,920495;126,560495;9,1;0;0,523386;15;5;11,137;126,560495;16,6;0,36;0,523386;0;0;-6,48;93,30;0,2;-2;0;0;1024;1024;1666;1024;93,2;0;96;3,73;3,728;3,679;0;0;0;0;;126,560495;16,6;6;P-GPS;
11300;25.08.2021 07:02;53,20753528;22,7730619;16,8;16,84;109,920495;126,760495;9,1;0;0,534537;15;5;11,137;126,760495;16,8;0,36;0,534537;0;0;-6,48;93,30;0;-1,6;0;0;1024;1024;1666;1024;93,2;0;96;3,73;3,728;3,679;0;0;0;0;;126,760495;16,8;6;P-GPS;
11400;25.08.2021 07:02;53,20753536;22,77306169;17;17,04;109,920495;126,960495;9,1;0;0,550184;15;5;11,137;126,960495;17;0,36;0,550184;0;0;-6,48;93,20;0;-1,4;0;0;1028;1041;1664;1024;93,2;0;96;3,73;3,728;3,679;0;0;0;0;;126,960495;17;6;P-GPS;
11500;25.08.2021 07:02;53,20753539;22,77306153;17,1;17,14;109,920495;127,060495;9,1;0;0,561536;15;5;11,137;127,060495;17,1;0,36;0,561536;0;0;-6,48;93,20;-0,1;-2,1;0;0;1028;1041;1664;1024;93,2;0;96;3,73;3,728;3,679;0;0;0;0;;127,060495;17,1;6;P-GPS;
11600;25.08.2021 07:02;53,20753544;22,77306122;17,3;17,34;109,920495;127,260495;9,1;0;0,583023;15;5;11,137;127,260495;17,3;0,36;0,583023;0;0;-6,48;93,20;-0,3;-2;0;0;1189;1682;1662;1024;93,2;0;96;3,73;3,728;3,679;0;0;0;0;;127,260495;17,3;6;P-GPS;
11700;25.08.2021 07:02;53,20753547;22,77306105;17,5;17,54;109,920495;127,460495;9,1;0;0,594948;15;5;11,137;127,460495;17,5;0,36;0,594948;0;0;-6,48;93,30;-0,4;-1,4;0;0;1189;1682;1662;1024;93,2;0;96;3,73;3,728;3,679;0;0;0;0;;127,460495;17,5;6;P-GPS;
11800;25.08.2021 07:02;53,2075355;22,77306097;17,6;17,65;109,910495;127,560495;9,1;0;0,600719;15;5;11,137;127,560495;17,6;0,36;0,600719;0;0;-6,48;93,20;-1,6;4,8;0;0;1188;1682;1663;1024;93,2;0;96;3,73;3,728;3,679;0;0;0;0;;127,560495;17,6;6;P-GPS;
11900;25.08.2021 07:02;53,20753544;22,77306084;17,8;17,84;109,920495;127,760495;9,1;0,36;0,607498;15;5;11,079;127,760495;17,8;0,36;0,607498;-0,36;0;-6,48;93,00;-2,7;11,5;0;0;1024;1024;1663;1024;93,2;0;96;3,714;3,706;3,659;0;0;0;0;;127,760495;17,8;6;P-GPS;
12000;25.08.2021 07:02;53,20753539;22,77306096;17,9;17,94;109,920495;127,860495;9,1;1,44;0,598479;15;5;11,079;127,860495;17,9;1,44;0,607498;-1,44;0;-6,48;93,10;-2,5;14,3;0;0;1024;1024;1663;1024;93,2;0;96;3,714;3,706;3,659;0;0;0;0;;127,860495;17,9;6;P-GPS;
12100;25.08.2021 07:02;53,20753489;22,77306094;18,1;18,14;109,920495;128,060495;9,1;2,52;0,590008;15;5;11,079;128,060495;18,1;2,52;0,607498;-2,52;0;-6,48;93,10;-2,1;14,6;0;0;1024;1024;1663;1024;93,2;0;96;3,714;3,706;3,659;0;0;0;0;;128,060495;18,1;6;P-GPS;
12200;25.08.2021 07:02;53,20753379;22,7730608;18,3;18,33;109,930495;128,260495;9,1;3,6;0,59689;15;5;11,079;128,260495;18,3;3,6;0,607498;-3,6;0,36;-6,48;92,00;-0,6;3,6;0;0;1024;533;1664;1024;93,2;0;96;3,714;3,706;3,659;0;0;0;0;;128,260495;18,3;6;P-GPS;
12300;25.08.2021 07:02;53,20753287;22,77306088;18,5;18,53;109,930495;128,460495;9,1;3,6;0,60887;15;5;11,079;128,460495;18,5;3,6;0,60887;-3,6;0,36;-6,48;92,70;1,1;-9,4;0;0;1024;375;1666;1024;93,2;0;96;3,714;3,706;3,659;0;0;0;0;;128,460495;18,5;6;P-GPS;
12400;25.08.2021 07:02;53,20753146;22,77306156;18,7;18,71;109,950495;128,660495;9,1;2,916;0,625346;15;5;11,079;128,660495;18,7;3,6;0,625346;-2,88;0,36;-6,84;92,40;1,5;-12,2;0;0;1024;375;1666;1024;93,2;0;96;3,714;3,706;3,659;0;0;0;0;;128,660495;18,7;6;P-GPS;
12500;25.08.2021 07:02;53,20753074;22,77306166;18,8;18,81;109,950495;128,760495;9,1;2,196;0,663528;15;5;11,079;128,760495;18,8;3,6;0,663528;-2,16;0,36;-6,48;92,70;1,1;-14,8;0;0;1024;374;1668;1024;93,2;0;96;3,714;3,706;3,659;0;0;0;0;;128,760495;18,8;6;P-GPS;
12600;25.08.2021 07:02;53,20753002;22,77306201;19;19;109,960495;128,960495;9,1;1,152;0,695782;15;5;11,079;128,960495;19;3,6;0,695782;-1,08;0,36;-6,48;93,00;0,6;-15,2;0;0;1024;375;1671;1024;93,2;0;96;3,714;3,706;3,659;0;0;0;0;;128,960495;19;6;P-GPS;
12700;25.08.2021 07:02;53,20752969;22,77306212;19,1;19,1;109,960495;129,060495;9,1;0,504;0,715257;15;5;11,079;129,060495;19,1;3,6;0,715257;-0,36;0,36;-6,48;92,90;0,7;-14,5;0;0;1024;375;1673;1024;93,2;0;96;3,714;3,706;3,659;0;0;0;0;;129,060495;19,1;6;P-GPS;
12800;25.08.2021 07:02;53,20753047;22,77306258;19,3;19,3;109,960495;129,260495;9,1;0,504;0,633944;15;5;11,079;129,260495;19,3;3,6;0,715257;0,36;0,36;-6,48;93,00;1,1;-13,9;0;0;1024;377;1672;1024;93,2;0;95;3,714;3,706;3,659;0;0;0;0;;129,260495;19,3;6;P-GPS;
12900;25.08.2021 07:02;53,20753062;22,77306273;19,5;19,5;109,960495;129,460495;9,1;1,152;0,615506;15;5;10,99;129,460495;19,5;3,6;0,715257;1,08;0,36;-6,84;93,00;1,2;-13,8;0;0;1024;380;1672;1024;93,2;0;95;3,684;3,674;3,632;0;0;0;0;;129,460495;19,5;6;P-GPS;
13000;25.08.2021 07:02;53,20753153;22,7730628;19,7;19,71;109,950495;129,660495;9,1;1,476;0,550824;15;5;10,99;129,660495;19,7;3,6;0,715257;1,44;0,36;-6,84;91,10;0,9;-14;0;0;1024;382;1671;1024;93,2;0;95;3,684;3,674;3,632;0;0;0;0;;129,660495;19,7;6;P-GPS;
13100;25.08.2021 07:02;53,20753209;22,77306286;19,8;19,81;109,950495;129,760495;9,1;2,196;0,515945;15;5;10,99;129,760495;19,8;3,6;0,715257;2,16;0,36;-6,84;92,50;0,7;-13,9;0;0;1024;384;1669;1024;93,2;0;95;3,684;3,674;3,632;0;0;0;0;;129,760495;19,8;6;P-GPS;
13200;25.08.2021 07:02;53,20753212;22,7730619;20,1;20,11;109,950495;130,060495;9,1;2,556;0,572042;15;5;10,99;130,060495;20,1;3,6;0,715257;2,52;0,36;-6,84;94,00;0,3;-14,4;0;0;1024;566;1668;1024;93,2;0;95;3,684;3,674;3,632;0;0;0;0;;130,060495;20,1;6;P-GPS;
13300;25.08.2021 07:02;53,20753296;22,77306198;20,3;20,32;109,940495;130,260495;9,1;3,276;0,535553;15;5;10,99;130,260495;20,3;3,6;0,715257;3,24;0,36;-6,84;93,30;0,2;-14;0;0;1024;1024;1668;1024;93,2;0;95;3,684;3,674;3,632;0;0;0;0;;130,260495;20,3;6;P-GPS;
13400;25.08.2021 07:02;53,20753428;22,77306178;20,5;20,53;109,930495;130,460495;9,1;3,96;0,529651;15;5;10,99;130,460495;20,5;3,96;0,715257;3,96;0,36;-6,84;92,80;0,1;-13,9;0;0;1024;1024;1669;1024;93,2;0;95;3,684;3,674;3,632;0;0;0;0;;130,460495;20,5;6;P-GPS;
13500;25.08.2021 07:02;53,20753544;22,77306186;20,7;20,74;109,920495;130,660495;9,1;4,32;0,541362;15;5;10,99;130,660495;20,7;4,32;0,715257;4,32;0,36;-6,84;93,10;0,1;-14,1;0;0;1024;1024;1672;1024;93,2;0;95;3,684;3,674;3,632;0;0;0;0;;130,660495;20,7;6;P-GPS;
13600;25.08.2021 07:02;53,20753746;22,77306137;20,9;20,95;109,910495;130,860495;9,1;5,04;0,66324;15;5;10,99;130,860495;20,9;5,04;0,715257;5,04;0,36;-6,84;92,90;0,9;-13,9;0;0;1024;1024;1672;1024;93,2;0;95;3,684;3,674;3,632;0;0;0;0;;130,860495;20,9;6;P-GPS;
13700;25.08.2021 07:02;53,20753896;22,77306147;21,1;21,17;109,890495;131,060495;9,1;5,4;0,761654;15;5;10,99;131,060495;21,1;5,4;0,761654;5,4;0,36;-6,84;92,90;2;1,5;0;0;1024;1024;1675;1024;93,2;0;95;3,684;3,674;3,632;0;0;0;0;;131,060495;21,1;6;P-GPS;
13800;25.08.2021 07:02;53,20754059;22,77306109;21,3;21,38;109,880495;131,260495;9,1;5,04;0,912372;15;5;10,99;131,260495;21,3;5,4;0,912372;5,04;0,36;-7,2;93,20;2,1;10,6;0;0;1024;1024;1675;1024;93,2;0;95;3,684;3,674;3,632;0;0;0;0;;131,260495;21,3;6;P-GPS;
13900;25.08.2021 07:02;53,20754182;22,77306109;21,5;21,59;109,870495;131,460495;9,1;3,96;1,02236;15;5;10,958;131,460495;21,5;5,4;1,02236;3,96;0;-6,84;93,20;1,7;12,2;0;0;1024;1024;1679;1024;93,2;0;95;3,677;3,665;3,616;0;0;0;0;;131,460495;21,5;6;P-GPS;
14000;25.08.2021 07:02;53,20754295;22,77306065;21,7;21,8;109,860495;131,660495;9,1;2,88;1,14281;15;5;10,958;131,660495;21,7;5,4;1,14281;2,88;0;-6,84;93,30;1,2;9,7;0;0;1024;1024;1679;1024;93,2;0;95;3,677;3,665;3,616;0;0;0;0;;131,660495;21,7;6;P-GPS;
14100;25.08.2021 07:02;53,2075437;22,77306053;21,9;22;109,860495;131,860495;9,1;1,8;1,21827;15;5;10,958;131,860495;21,9;5,4;1,21827;1,8;0;-6,84;93,10;0,8;7;0;0;1024;1024;1682;1024;93,2;0;95;3,677;3,665;3,616;0;0;0;0;;131,860495;21,9;6;P-GPS;
14200;25.08.2021 07:02;53,20754355;22,77305987;22,2;22,31;109,850495;132,160495;9,1;1,08;1,22707;15;5;10,958;132,160495;22,2;5,4;1,22707;1,08;0;-7,2;93,10;0,9;4,4;0;0;1024;1024;1680;1024;93,2;-0,2;95;3,677;3,665;3,616;0;0;0;0;;132,160495;22,2;6;P-GPS;
14300;25.08.2021 07:02;53,20754393;22,77305968;22,4;22,51;109,850495;132,360495;9,1;0,72;1,26963;15;5;10,958;132,360495;22,4;5,4;1,26963;0,72;0;-7,2;93,20;1;2,2;0;0;1024;1024;1684;1024;93,2;-0,9;95;3,677;3,665;3,616;0;0;0;0;;132,360495;22,4;6;P-GPS;
14400;25.08.2021 07:02;53,20754332;22,77305967;22,6;22,7;109,860495;132,560495;9,1;0,36;1,213;15;5;10,958;132,560495;22,6;5,4;1,26963;0,36;0;-7,2;93,00;1,1;1;0;0;1024;1024;1683;1024;93,2;-2,2;95;3,677;3,665;3,616;0;0;0;0;;132,560495;22,6;6;P-GPS;
14500;25.08.2021 07:02;53,20754346;22,7730595;22,8;22,91;109,850495;132,760495;9,1;0,36;1,23265;15;5;10,958;132,760495;22,8;5,4;1,26963;0,36;0;-6,84;93,00;1;0,6;0;0;1024;1024;1683;1024;93,2;-4,1;95;3,677;3,665;3,616;0;0;0;0;;132,760495;22,8;6;P-GPS;
14600;25.08.2021 07:02;53,20754337;22,77305951;22,9;23;109,860495;132,860495;9,1;0;1,22359;15;5;10,958;132,860495;22,9;5,4;1,26963;0;0;-6,84;92,80;0,8;0,1;0;0;1024;1024;1682;1024;93,2;-6,3;95;3,677;3,665;3,616;0;0;0;0;;132,860495;22,9;6;P-GPS;
14700;25.08.2021 07:02;53,2075433;22,77305978;23,1;23,2;109,860495;133,060495;9,1;0;1,20674;15;5;10,958;133,060495;23,1;5,4;1,26963;0;0;-6,84;93,10;0,8;-1,2;0;0;1024;1024;1678;1024;93,2;-8,5;95;3,677;3,665;3,616;0;0;0;0;;133,060495;23,1;6;P-GPS;
14800;25.08.2021 07:02;53,20754327;22,77305965;23,3;23,4;109,860495;133,260495;9,1;0;1,20895;15;5;10,958;133,260495;23,3;5,4;1,26963;0;0;-6,84;93,10;0,7;-1,7;0;0;1024;1024;1674;1024;93,2;-10,7;95;3,677;3,665;3,616;0;0;0;0;;133,260495;23,3;6;P-GPS;
14900;25.08.2021 07:02;53,20754322;22,77305952;23,5;23,6;109,860495;133,460495;9,1;0;1,20973;15;5;10,983;133,460495;23,5;5,4;1,26963;0;0;-6,84;93,10;0,7;-1,7;0;0;1024;1024;1672;1024;93,2;-12,9;95;3,681;3,671;3,631;0;0;0;0;;133,460495;23,5;6;P-GPS;
15000;25.08.2021 07:02;53,20754352;22,77305982;23,7;23,81;109,850495;133,660495;9,1;0;1,22673;15;5;10,983;133,660495;23,7;5,4;1,26963;0;0;-6,84;93,10;1,2;-1,2;0;0;1024;1024;1669;1024;93,2;-14,7;95;3,681;3,671;3,631;0;0;0;0;;133,660495;23,7;6;P-GPS;
15100;25.08.2021 07:02;53,20754349;22,77305973;23,8;23,9;109,860495;133,760495;9,1;0;1,22647;15;5;10,983;133,760495;23,8;5,4;1,26963;0;0;-6,84;93,10;1,4;-1,2;0;0;1024;1024;1668;1024;93,2;-15,9;95;3,681;3,671;3,631;0;0;0;0;;133,760495;23,8;6;P-GPS;
15200;25.08.2021 07:02;53,20754357;22,7730598;24;24,11;109,850495;133,960495;9,1;0;1,23145;15;5;10,983;133,960495;24;5,4;1,26963;0;0;-6,84;93,10;1,5;-0,6;0;0;1024;1024;1666;1024;93,2;-16,5;95;3,681;3,671;3,631;0;0;0;0;;133,960495;24;6;P-GPS;
15300;25.08.2021 07:02;53,20754352;22,77305972;24,2;24,31;109,850495;134,160495;9,1;0;1,2303;15;5;10,983;134,160495;24,2;5,4;1,26963;0;0;-6,84;93,10;1,3;-0,2;0;0;1024;1024;1666;1024;93,2;-16,6;95;3,681;3,671;3,631;0;0;0;0;;134,160495;24,2;6;P-GPS;
15400;25.08.2021 07:02;53,20754364;22,77305986;24,3;24,41;109,850495;134,260495;9,1;0;1,23587;15;5;10,983;134,260495;24,3;5,4;1,26963;0;0;-6,84;93,30;1,6;-0,5;0;0;1024;1024;1666;1024;93,2;-16,6;95;3,681;3,671;3,631;0;0;0;0;;134,260495;24,3;6;P-GPS;
15500;25.08.2021 07:02;53,20754357;22,77305978;24,5;24,61;109,850495;134,460495;9,1;0;1,23183;15;5;10,983;134,460495;24,5;5,4;1,26963;0;0;-6,48;93,20;1,8;-1,4;0;0;1024;1024;1666;1024;93,2;-16,6;95;3,681;3,671;3,631;0;0;0;0;;134,460495;24,5;6;P-GPS;
15600;25.08.2021 07:02;53,2075437;22,77305972;24,7;24,81;109,850495;134,660495;9,1;0;1,24616;15;5;10,983;134,660495;24,7;5,4;1,26963;0;0;-6,48;93,20;1,8;-1,5;0;0;1024;1024;1666;1024;93,2;-16,6;95;3,681;3,671;3,631;0;0;0;0;;134,660495;24,7;6;P-GPS;
15700;25.08.2021 07:02;53,20754365;22,77305964;24,8;24,91;109,850495;134,760495;9,1;0;1,24508;15;5;10,983;134,760495;24,8;5,4;1,26963;0;0;-6,48;93,20;2,1;-0,9;0;0;1024;1024;1666;1024;93,2;-16,6;95;3,681;3,671;3,631;0;0;0;0;;134,760495;24,8;6;P-GPS;
15800;25.08.2021 07:02;53,20754371;22,77305993;25;25,11;109,850495;134,960495;9,1;0;1,23994;15;5;10,983;134,960495;25;5,4;1,26963;0;0;-6,48;93,30;2,6;-0,3;0;0;1024;1024;1678;734;93,2;-16,6;95;3,681;3,671;3,631;0;0;0;0;;134,960495;25;6;P-GPS;
15900;25.08.2021 07:02;53,20754368;22,77305985;25,1;25,21;109,850495;135,060495;9,1;0;1,24031;15;5;10,99;135,060495;25,1;5,4;1,26963;0;0;-6,48;93,20;2,3;-0,2;0;0;1024;1024;1678;734;93,2;-16,6;95;3,689;3,671;3,63;0;0;0;0;;135,060495;25,1;6;P-GPS;
16000;25.08.2021 07:02;53,20754396;22,77305941;25,3;25,41;109,850495;135,260495;9,1;0;1,28185;15;5;10,99;135,260495;25,3;5,4;1,28185;0;0;-6,48;93,20;1,8;0;0;0;1024;1024;1679;763;93,2;-16,6;95;3,689;3,671;3,63;0;0;0;0;;135,260495;25,3;6;P-GPS;
16100;25.08.2021 07:02;53,20754394;22,77305925;25,5;25,61;109,850495;135,460495;9,1;0;1,28632;15;5;10,99;135,460495;25,5;5,4;1,28632;0;0;-6,48;92,80;1,5;-0,7;0;0;1024;1024;1679;763;90,8;-16,6;95;3,689;3,671;3,63;0;0;0;0;;135,460495;25,5;6;P-GPS;
16200;25.08.2021 07:02;53,20754379;22,7730595;25,6;25,71;109,850495;135,560495;9,1;0;1,26331;15;5;10,99;135,560495;25,6;5,4;1,28632;0;0;-6,84;90,30;1,5;-0,6;0;0;1024;1024;1675;852;86,7;-16,6;95;3,689;3,671;3,63;0;0;0;0;;135,560495;25,6;6;P-GPS;
16300;25.08.2021 07:02;53,20754379;22,7730594;25,8;25,91;109,850495;135,760495;9,1;0;1,26672;15;5;10,99;135,760495;25,8;5,4;1,28632;0;0;-6,84;86,70;1,6;0,3;0;0;1024;1024;1674;861;84,1;-16,6;95;3,689;3,671;3,63;0;0;0;0;;135,760495;25,8;6;P-GPS;
16400;25.08.2021 07:02;53,20754382;22,77305914;26;26,11;109,850495;135,960495;9,1;0;1,2792;15;5;10,99;135,960495;26;5,4;1,28632;0;0;-6,84;84,30;2,1;1,1;0;0;1024;1024;1661;923;82,7;-16,6;95;3,689;3,671;3,63;0;0;0;0;;135,960495;26;6;P-GPS;
16500;25.08.2021 07:02;53,20754379;22,77305904;26,2;26,31;109,850495;136,160495;9,1;0;1,27975;15;5;10,99;136,160495;26,2;5,4;1,28632;0;0;-6,84;82,80;2,4;0,3;0;0;1024;1024;1661;1024;81,6;-16,6;95;3,689;3,671;3,63;0;0;0;0;;136,160495;26,2;6;P-GPS;
16600;25.08.2021 07:02;53,20754381;22,77305904;26,3;26,41;109,850495;136,260495;9,1;0;1,28179;15;5;10,99;136,260495;26,3;5,4;1,28632;0;0;-6,84;81,60;2,6;-0,3;0;0;1024;1024;1660;1024;80,9;-16,6;95;3,689;3,671;3,63;0;0;0;0;;136,260495;26,3;6;P-GPS;
16700;25.08.2021 07:02;53,20754376;22,77305895;26,5;26,61;109,850495;136,460495;9,1;0;1,28044;15;5;10,99;136,460495;26,5;5,4;1,28632;0;0;-6,84;81,10;2,8;-0,6;0;0;1024;1024;1660;1024;80,9;-16,6;95;3,689;3,671;3,63;0;0;0;0;;136,460495;26,5;6;P-GPS;
16800;25.08.2021 07:02;53,20754375;22,77305901;26,7;26,81;109,850495;136,660495;9,1;0;1,27746;15;5;10,99;136,660495;26,7;5,4;1,28632;0;0;-6,48;80,90;2,6;-0,8;0;0;1024;1024;1660;1024;80,9;-16,6;95;3,689;3,671;3,63;0;0;0;0;;136,660495;26,7;6;P-GPS;
16900;25.08.2021 07:02;53,2075437;22,7730589;26,9;27,01;109,850495;136,860495;9,1;0;1,27667;15;5;10,931;136,860495;26,9;5,4;1,28632;0;0;-6,48;80,90;2,5;-1,2;0;0;1024;1024;1661;1024;80,9;-16,6;95;3,667;3,65;3,614;0;0;0;0;;136,860495;26,9;6;P-GPS;
17000;25.08.2021 07:02;53,20754346;22,77305834;27,1;27,21;109,850495;137,060495;9,1;0;1,27702;15;5;10,931;137,060495;27,1;5,4;1,28632;0;0;-6,84;80,90;2;-1,2;0;0;1024;1024;1661;1024;80,9;-16,6;95;3,667;3,65;3,614;0;0;0;0;;137,060495;27,1;6;P-GPS;
17100;25.08.2021 07:02;53,20754339;22,77305817;27,3;27,41;109,850495;137,260495;9,1;0;1,2774;15;5;10,931;137,260495;27,3;5,4;1,28632;0;0;-6,84;80,90;1,7;-1,2;0;0;1024;1024;1661;1024;80,9;-16,6;95;3,667;3,65;3,614;0;0;0;0;;137,260495;27,3;6;P-GPS;
17200;25.08.2021 07:02;53,20754336;22,77305805;27,5;27,61;109,850495;137,460495;9,1;0;1,27965;15;5;10,931;137,460495;27,5;5,4;1,28632;0;0;-6,84;80,90;1,6;-1,5;0;0;1024;1024;1663;1024;80,9;-16,6;95;3,667;3,65;3,614;0;0;0;0;;137,460495;27,5;6;P-GPS;
17300;25.08.2021 07:02;53,20754328;22,77305787;27,7;27,81;109,850495;137,660495;9,1;0;1,27949;15;5;10,931;137,660495;27,7;5,4;1,28632;0;0;-6,84;80,90;1,6;-1,9;0;0;1024;1024;1662;1024;80,9;-16,6;95;3,667;3,65;3,614;0;0;0;0;;137,660495;27,7;6;P-GPS;
17400;25.08.2021 07:02;53,20754341;22,77305787;27,9;28,01;109,850495;137,860495;9,1;0;1,29105;15;5;10,931;137,860495;27,9;5,4;1,29105;0;0;-6,84;80,80;1,6;-2;0;0;1024;1024;1662;1024;80,9;-16,6;95;3,667;3,65;3,614;0;0;0;0;;137,860495;27,9;6;P-GPS;
17500;25.08.2021 07:02;53,20754336;22,77305771;28,1;28,21;109,850495;138,060495;9,1;0;1,29287;15;5;10,931;138,060495;28,1;5,4;1,29287;0;0;-6,84;80,80;1,6;-2,2;0;0;1024;1024;1663;1024;80,9;-16,6;95;3,667;3,65;3,614;0;0;0;0;;138,060495;28,1;6;P-GPS;
17600;25.08.2021 07:02;53,20754302;22,77305726;28,3;28,41;109,850495;138,260495;9,1;0;1,28302;15;5;10,931;138,260495;28,3;5,4;1,29287;0;0;-6,84;80,80;1,2;-2,7;0;0;1024;1024;1663;1024;80,9;-16,6;95;3,667;3,65;3,614;0;0;0;0;;138,260495;28,3;6;P-GPS;
17700;25.08.2021 07:02;53,20754296;22,77305706;28,5;28,61;109,850495;138,460495;9,1;0;1,28687;15;5;10,931;138,460495;28,5;5,4;1,29287;0;0;-6,84;80,90;0,9;-2,3;0;0;1024;1024;1664;1024;80,9;-16,6;95;3,667;3,65;3,614;0;0;0;0;;138,460495;28,5;6;P-GPS;
17800;25.08.2021 07:02;53,20754318;22,77305695;28,7;28,81;109,850495;138,660495;9,1;0;1,31011;15;5;10,931;138,660495;28,7;5,4;1,31011;0;0;-6,84;80,90;1,1;-1,8;0;0;1024;1024;1665;1024;80,9;-16,6;95;3,667;3,65;3,614;0;0;0;0;;138,660495;28,7;6;P-GPS;
17900;25.08.2021 07:02;53,20754317;22,77305678;28,9;29,01;109,850495;138,860495;9,1;0;1,31651;15;5;10,931;138,860495;28,9;5,4;1,31651;0;0;-6,84;80,90;1,2;-1,9;0;0;1024;1024;1668;1024;80,9;-16,6;95;3,667;3,65;3,614;0;0;0;0;;138,860495;28,9;6;P-GPS;
18000;25.08.2021 07:02;53,20754318;22,77305626;29,1;29,22;109,840495;139,060495;9,1;0;1,34024;15;5;10,921;139,060495;29,1;5,4;1,34024;0;0;-6,84;80,80;1,1;-2,3;0;0;1024;1024;1666;1024;80,9;-16,6;95;3,664;3,645;3,612;0;0;0;0;;139,060495;29,1;6;P-GPS;
18100;25.08.2021 07:02;53,20754319;22,77305608;29,2;29,32;109,840495;139,160495;9,1;0;1,34941;15;5;10,921;139,160495;29,2;5,4;1,34941;0;0;-6,84;80,80;1,4;-1,5;0;0;1024;1024;1662;1024;80,9;-16,6;95;3,664;3,645;3,612;0;0;0;0;;139,160495;29,2;6;P-GPS;
18200;25.08.2021 07:02;53,20754312;22,77305595;29,4;29,52;109,840495;139,360495;9,1;0;1,34963;15;5;10,921;139,360495;29,4;5,4;1,34963;0;0;-6,84;80,90;1,5;-0,9;0;0;1024;1024;1662;1024;80,9;-16,6;95;3,664;3,645;3,612;0;0;0;0;;139,360495;29,4;6;P-GPS;
18300;25.08.2021 07:02;53,20754313;22,77305578;29,6;29,72;109,840495;139,560495;9,1;0;1,35805;15;5;10,921;139,560495;29,6;5,4;1,35805;0;0;-6,84;80,90;1,3;-1;0;0;1024;1024;1663;1024;80,9;-16,6;95;3,664;3,645;3,612;0;0;0;0;;139,560495;29,6;6;P-GPS;
18400;25.08.2021 07:02;53,20754318;22,77305573;29,8;29,92;109,840495;139,760495;9,1;0;1,36429;15;5;10,921;139,760495;29,8;5,4;1,36429;0;0;-6,84;80,80;1,4;-1;0;0;1024;1024;1663;1024;80,9;-16,6;95;3,664;3,645;3,612;0;0;0;0;;139,760495;29,8;6;P-GPS;
18500;25.08.2021 07:02;53,20754319;22,77305558;30;30,12;109,840495;139,960495;9,1;0;1,37154;15;5;10,921;139,960495;30;5,4;1,37154;0;0;-6,84;80,90;1,6;-0,9;0;0;1024;1024;1663;1024;80,9;-16,6;95;3,664;3,645;3,612;0;0;0;0;;139,960495;30;6;P-GPS;
18600;25.08.2021 07:02;53,2075433;22,77305535;30,2;30,32;109,840495;140,160495;9,1;0;1,39109;15;5;10,921;140,160495;30,2;5,4;1,39109;0;0;-6,84;80,90;1,6;-1,1;0;0;1024;1024;1663;1024;80,9;-16,6;95;3,664;3,645;3,612;0;0;0;0;;140,160495;30,2;6;P-GPS;
18700;25.08.2021 07:02;53,20754331;22,77305519;30,4;30,52;109,840495;140,360495;9,1;0;1,399;15;5;10,921;140,360495;30,4;5,4;1,399;0;0;-6,48;80,90;1,4;-1;0;0;1024;1024;1663;1024;80,9;-16,6;95;3,664;3,645;3,612;0;0;0;0;;140,360495;30,4;6;P-GPS;
18800;25.08.2021 07:02;53,20754309;22,77305508;30,6;30,72;109,840495;140,560495;9,1;0;1,3875;15;5;10,921;140,560495;30,6;5,4;1,399;0;0;-6,48;80,90;1,2;-1,7;0;0;1024;1024;1663;1024;80,9;-16,6;95;3,664;3,645;3,612;0;0;0;0;;140,560495;30,6;6;P-GPS;
18900;25.08.2021 07:02;53,20754308;22,77305493;30,8;30,92;109,840495;140,760495;9,1;0;1,39357;15;5;10,921;140,760495;30,8;5,4;1,399;0;0;-6,48;80,90;1,2;-1,8;0;1;1024;1024;1665;1024;80,9;-16,6;95;3,664;3,645;3,612;0;0;0;0;;140,760495;30,8;6;P-GPS;
19000;25.08.2021 07:02;53,20754325;22,77305463;30,9;31,02;109,840495;140,860495;9,1;0;1,42096;15;5;10,892;140,860495;30,9;5,4;1,42096;0;0;-6,48;80,90;1,1;-0,5;0;1;1024;1024;1665;1024;80,9;-16,6;95;3,657;3,632;3,603;0;0;0;0;;140,860495;30,9;6;P-GPS;
19100;25.08.2021 07:02;53,20754326;22,77305449;31,1;31,23;109,830495;141,060495;9,1;0;1,42793;15;5;10,892;141,060495;31,1;5,4;1,42793;0;0;-6,84;81,00;1,5;0;0;1;1024;1024;1665;1024;80,9;-16,6;95;3,657;3,632;3,603;0;0;0;0;;141,060495;31,1;6;P-GPS;
19200;25.08.2021 07:02;53,20754324;22,77305459;31,3;31,42;109,840495;141,260495;9,1;0;1,42202;15;5;10,892;141,260495;31,3;5,4;1,42793;0;0;-6,84;80,90;1,7;-0,8;0;1;1024;1024;1665;1024;80,9;-16,6;95;3,657;3,632;3,603;0;0;0;0;;141,260495;31,3;6;P-GPS;
19300;25.08.2021 07:02;53,20754321;22,77305449;31,5;31,63;109,830495;141,460495;9,1;0;1,42454;15;5;10,892;141,460495;31,5;5,4;1,42793;0;0;-6,84;80,90;1,7;-2;0;1;1024;1024;1665;1024;80,9;-16,6;95;3,657;3,632;3,603;0;0;0;0;;141,460495;31,5;6;P-GPS;
19400;25.08.2021 07:02;53,20754315;22,77305434;31,7;31,83;109,830495;141,660495;9,1;0;1,42678;15;5;10,892;141,660495;31,7;5,4;1,42793;0;0;-6,84;80,80;1,6;-2,2;0;1;1024;1024;1665;1024;80,9;-16,6;95;3,657;3,632;3,603;0;0;0;0;;141,660495;31,7;6;P-GPS;
19500;25.08.2021 07:02;53,20754314;22,77305422;31,9;32,03;109,830495;141,860495;9,1;0;1,43163;15;5;10,892;141,860495;31,9;5,4;1,43163;0;0;-6,84;80,90;1,6;-1,7;0;1;1024;1024;1666;1024;80,9;-16,6;95;3,657;3,632;3,603;0;0;0;0;;141,860495;31,9;6;P-GPS;
19600;25.08.2021 07:02;53,20754299;22,77305411;32,1;32,23;109,830495;142,060495;9,1;0;1,42599;15;5;10,892;142,060495;32,1;5,4;1,43163;0;0;-6,84;80,90;1,5;-1,1;0;1;1024;1024;1666;1024;80,9;-16,6;95;3,657;3,632;3,603;0;0;0;0;;142,060495;32,1;6;P-GPS;
19700;25.08.2021 07:02;53,20754297;22,77305397;32,3;32,43;109,830495;142,260495;9,1;0;1,4307;15;5;10,892;142,260495;32,3;5,4;1,43163;0;0;-6,84;81,00;1,4;-0,6;0;1;1024;1024;1666;1024;80,9;-16,6;95;3,657;3,632;3,603;0;0;0;0;;142,260495;32,3;6;P-GPS;
19800;25.08.2021 07:02;53,20754307;22,77305356;32,5;32,63;109,830495;142,460495;9,1;0;1,45807;15;5;10,892;142,460495;32,5;5,4;1,45807;0;0;-6,84;80,90;0,9;-0,8;0;1;1024;1024;1663;1024;80,9;-16,6;95;3,657;3,632;3,603;0;0;0;0;;142,460495;32,5;6;P-GPS;
19900;25.08.2021 07:02;53,20754302;22,77305342;32,7;32,83;109,830495;142,660495;9,1;0;1,4614;15;5;10,892;142,660495;32,7;5,4;1,4614;0;0;-6,84;80,90;1;-1,4;0;1;1024;1024;1663;1024;80,9;-16,6;95;3,657;3,632;3,603;0;0;0;0;;142,660495;32,7;6;P-GPS;
20000;25.08.2021 07:02;53,20754283;22,77305345;32,9;33,03;109,830495;142,860495;9,1;0;1,44659;15;5;10,818;142,860495;32,9;5,4;1,4614;0;0;-6,84;80,90;1,2;-2,1;0;1;1024;1024;1665;1024;80,9;-16,6;95;3,632;3,605;3,581;0;0;0;0;;142,860495;32,9;6;P-GPS;
20100;25.08.2021 07:02;53,20754276;22,77305334;33,1;33,23;109,830495;143,060495;9,1;0;1,44667;15;5;10,818;143,060495;33,1;5,4;1,4614;0;0;-6,84;80,90;1,2;-2,9;0;1;1024;1024;1666;1024;80,9;-16,6;95;3,632;3,605;3,581;0;0;0;0;;143,060495;33,1;6;P-GPS;
20200;25.08.2021 07:02;53,2075428;22,7730534;33,3;33,43;109,830495;143,260495;9,1;0;1,4469;15;5;10,818;143,260495;33,3;5,4;1,4614;0;0;-6,84;80,90;1,3;-2,6;0;1;1024;1024;1665;1024;80,9;-16,6;95;3,632;3,605;3,581;0;0;0;0;;143,260495;33,3;6;P-GPS;
20300;25.08.2021 07:02;53,20754276;22,77305331;33,5;33,63;109,830495;143,460495;9,1;0;1,44763;15;5;10,818;143,460495;33,5;5,4;1,4614;0;0;-6,84;81,00;1,4;-2,7;0;1;1024;1024;1665;1024;80,9;-16,6;95;3,632;3,605;3,581;0;0;0;0;;143,460495;33,5;6;P-GPS;
20400;25.08.2021 07:02;53,20754276;22,77305342;33,7;33,83;109,830495;143,660495;9,1;0;1,44216;15;5;10,818;143,660495;33,7;5,4;1,4614;0;0;-6,84;80,90;1,4;-2,3;0;1;1024;1024;1665;1024;80,9;-16,6;95;3,632;3,605;3,581;0;0;0;0;;143,660495;33,7;6;P-GPS;
20500;25.08.2021 07:02;53,20754273;22,77305336;33,9;34,03;109,830495;143,860495;9,1;0;1,44334;15;5;10,818;143,860495;33,9;5,4;1,4614;0;0;-6,84;80,80;1,4;-2,2;0;1;1024;1024;1667;1024;80,9;-16,6;95;3,632;3,605;3,581;0;0;0;0;;143,860495;33,9;6;P-GPS;
20600;25.08.2021 07:02;53,20754272;22,77305321;34,1;34,23;109,830495;144,060495;9,1;0;1,45005;15;5;10,818;144,060495;34,1;5,4;1,4614;0;0;-6,84;80,80;1,5;-2,1;0;1;1024;1024;1668;1024;80,9;-16,6;95;3,632;3,605;3,581;0;0;0;0;;144,060495;34,1;6;P-GPS;
20700;25.08.2021 07:02;53,2075427;22,77305315;34,3;34,43;109,830495;144,260495;9,1;0;1,45178;15;5;10,818;144,260495;34,3;5,4;1,4614;0;0;-6,84;80,80;1,7;-1,4;0;1;1024;1024;1668;1024;80,9;-16,6;95;3,632;3,605;3,581;0;0;0;0;;144,260495;34,3;6;P-GPS;
20800;25.08.2021 07:02;53,20754262;22,77305331;34,5;34,63;109,830495;144,460495;9,1;0;1,43796;15;5;10,818;144,460495;34,5;5,4;1,4614;0;0;-6,84;80,80;1,5;-1,9;0;1;1024;1024;1669;1024;80,9;-16,6;95;3,632;3,605;3,581;0;0;0;0;;144,460495;34,5;6;P-GPS;
20900;25.08.2021 07:02;53,20754258;22,77305326;34,7;34,83;109,830495;144,660495;9,1;0;1,43704;15;5;10,818;144,660495;34,7;5,4;1,4614;0;0;-6,84;80,80;1,7;-2,6;0;1;1024;1024;1669;1024;80,9;-16,7;95;3,632;3,605;3,581;0;0;0;0;;144,660495;34,7;6;P-GPS;
21000;25.08.2021 07:02;53,20754246;22,77305321;34,9;35,02;109,840495;144,860495;9,1;0;1,43178;15;5;10,824;144,860495;34,9;5,4;1,4614;0;0;-6,84;80,90;1,5;-2;0;1;1024;1024;1669;1024;80,9;-16,7;95;3,636;3,604;3,584;0;0;0;0;;144,860495;34,9;6;P-GPS;
21100;25.08.2021 07:02;53,20754242;22,77305315;35,1;35,22;109,840495;145,060495;9,1;0;1,43138;15;5;10,824;145,060495;35,1;5,4;1,4614;0;0;-6,84;80,90;1,1;-2,4;0;1;1024;1024;1669;1024;80,9;-16,7;95;3,636;3,604;3,584;0;0;0;0;;145,060495;35,1;6;P-GPS;
21200;25.08.2021 07:02;53,20754249;22,77305309;35,3;35,42;109,840495;145,260495;9,1;0;1,43971;15;5;10,824;145,260495;35,3;5,4;1,4614;0;0;-6,84;80,80;1,1;-2;0;1;1024;1024;1669;1024;80,9;-16,8;95;3,636;3,604;3,584;0;0;0;0;;145,260495;35,3;6;P-GPS;
21300;25.08.2021 07:02;53,20754246;22,77305305;35,5;35,62;109,840495;145,460495;9,1;0;1,43917;15;5;10,824;145,460495;35,5;5,4;1,4614;0;0;-6,84;80,90;1,4;-2,2;0;1;1024;1024;1669;1024;80,9;-16,8;95;3,636;3,604;3,584;0;0;0;0;;145,460495;35,5;6;P-GPS;
21400;25.08.2021 07:02;53,20754239;22,77305303;35,7;35,82;109,840495;145,660495;9,1;0;1,43593;15;5;10,824;145,660495;35,7;5,4;1,4614;0;0;-6,84;80,90;1,6;-2,1;0;1;1024;1024;1670;1024;80,9;-16,8;95;3,636;3,604;3,584;0;0;0;0;;145,660495;35,7;6;P-GPS;
21500;25.08.2021 07:02;53,20754236;22,77305301;35,9;36,02;109,840495;145,860495;9,1;0;1,43505;15;5;10,824;145,860495;35,9;5,4;1,4614;0;0;-6,84;80,90;1,6;-2,3;0;1;1024;1024;1670;1024;80,9;-16,9;95;3,636;3,604;3,584;0;0;0;0;;145,860495;35,9;6;P-GPS;
21600;25.08.2021 07:02;53,20754246;22,773053;36,1;36,22;109,840495;146,060495;9,1;0;1,44221;15;5;10,824;146,060495;36,1;5,4;1,4614;0;0;-6,84;80,90;1,4;-2,4;0;1;1024;1024;1669;1024;80,9;-16,9;95;3,636;3,604;3,584;0;0;0;0;;146,060495;36,1;6;P-GPS;
21700;25.08.2021 07:02;53,20754247;22,77305301;36,3;36,42;109,840495;146,260495;9,1;0;1,44216;15;5;10,824;146,260495;36,3;5,4;1,4614;0;0;-6,84;80,80;1,8;-1,8;0;1;1024;1024;1670;1024;80,9;-16,9;95;3,636;3,604;3,584;0;0;0;0;;146,260495;36,3;6;P-GPS;
21800;25.08.2021 07:02;53,20754255;22,77305281;36,5;36,63;109,830495;146,460495;9,1;0;1,4587;15;5;10,824;146,460495;36,5;5,4;1,4614;0;0;-6,84;80,90;2,3;-1,3;0;1;1024;1024;1669;1024;80,9;-17;95;3,636;3,604;3,584;0;0;0;0;;146,460495;36,5;6;P-GPS;
21900;25.08.2021 07:02;53,20754256;22,77305281;36,7;36,83;109,830495;146,660495;9,1;0;1,45916;15;5;10,824;146,660495;36,7;5,4;1,4614;0;0;-6,84;80,80;2,4;-1,4;0;1;1024;1024;1669;1024;80,9;-17,1;95;3,636;3,604;3,584;0;0;0;0;;146,660495;36,7;6;P-GPS;
22000;25.08.2021 07:02;53,20754273;22,77305274;36,8;36,93;109,830495;146,760495;9,1;0;1,47477;15;5;10,75;146,760495;36,8;5,4;1,47477;0;0;-6,84;80,80;2,2;-1,4;0;1;1024;1024;1669;1024;80,9;-17,3;95;3,61;3,577;3,563;0;0;0;0;;146,760495;36,8;6;P-GPS;
22100;25.08.2021 07:02;53,20754273;22,77305272;37;37,13;109,830495;146,960495;9,1;0;1,476;15;5;10,75;146,960495;37;5,4;1,476;0;0;-6,84;80,80;2;-1,9;0;1;1024;1024;1668;1024;80,9;-17,5;95;3,61;3,577;3,563;0;0;0;0;;146,960495;37;6;P-GPS;
22200;25.08.2021 07:02;53,20754248;22,77305287;37,2;37,32;109,840495;147,160495;9,1;0;1,4499;15;5;10,75;147,160495;37,2;5,4;1,476;0;0;-6,84;80,80;1,8;-2,3;0;1;1024;1024;1669;1024;80,9;-17,7;95;3,61;3,577;3,563;0;0;0;0;;147,160495;37,2;6;P-GPS;
22300;25.08.2021 07:02;53,20754245;22,77305287;37,4;37,52;109,840495;147,360495;9,1;0;1,44813;15;5;10,75;147,360495;37,4;5,4;1,476;0;0;-6,84;80,80;2;-2,3;0;1;1024;1024;1669;1024;80,9;-17,9;95;3,61;3,577;3,563;0;0;0;0;;147,360495;37,4;6;P-GPS;
22400;25.08.2021 07:02;53,20754258;22,77305254;37,6;37,73;109,830495;147,560495;9,1;0;1,4747;15;5;10,75;147,560495;37,6;5,4;1,476;0;0;-6,84;80,90;1,9;-1,9;0;1;1024;1024;1669;1024;80,9;-18,2;95;3,61;3,577;3,563;0;0;0;0;;147,560495;37,6;6;P-GPS;
22500;25.08.2021 07:02;53,20754255;22,7730525;37,8;37,93;109,830495;147,760495;9,1;0;1,4746;15;5;10,75;147,760495;37,8;5,4;1,476;0;0;-6,84;80,80;1,7;-2,4;0;1;1024;1024;1669;1024;80,9;-18,4;95;3,61;3,577;3,563;0;0;0;0;;147,760495;37,8;6;P-GPS;
22600;25.08.2021 07:02;53,20754256;22,77305257;38;38,13;109,830495;147,960495;9,1;0;1,47141;15;5;10,75;147,960495;38;5,4;1,476;0;0;-6,84;80,80;1,9;-2,7;0;1;1024;1024;1670;1024;80,9;-18,6;95;3,61;3,577;3,563;0;0;0;0;;147,960495;38;6;P-GPS;
22700;25.08.2021 07:02;53,20754253;22,77305254;38,3;38,43;109,830495;148,260495;9,1;0;1,47079;15;5;10,75;148,260495;38,3;5,4;1,476;0;0;-6,84;80,80;1,8;-3;0;1;1024;1024;1669;1024;80,9;-18,8;95;3,61;3,577;3,563;0;0;0;0;;148,260495;38,3;6;P-GPS;
22800;25.08.2021 07:02;53,20754239;22,7730526;38,5;38,62;109,840495;148,460495;9,1;0;1,45808;15;5;10,75;148,460495;38,5;5,4;1,476;0;0;-6,84;80,80;1,7;-2,9;0;1;1024;1024;1671;1024;80,9;-19,3;94;3,61;3,577;3,563;0;0;0;0;;148,460495;38,5;6;P-GPS;
22900;25.08.2021 07:02;53,20754235;22,77305258;38,7;38,82;109,840495;148,660495;9,1;0;1,45676;15;5;10,75;148,660495;38,7;5,4;1,476;0;0;-6,84;80,90;1,8;-2,8;0;1;1024;1024;1670;1024;80,9;-20;94;3,61;3,577;3,563;0;0;0;0;;148,660495;38,7;6;P-GPS;
23000;25.08.2021 07:02;53,20754243;22,7730523;38,9;39,03;109,830495;148,860495;9,1;0;1,47673;15;5;10,745;148,860495;38,9;5,4;1,47673;0;0;-6,84;81,00;1,5;-3,1;0;1;1024;1024;1669;1024;80,9;-20,7;94;3,611;3,569;3,565;0;0;0;0;;148,860495;38,9;6;P-GPS;
23100;25.08.2021 07:02;53,20754241;22,77305227;39,1;39,23;109,830495;149,060495;9,1;0;1,47656;15;5;10,745;149,060495;39,1;5,4;1,47673;0;0;-6,84;80,90;1,6;-3,3;0;1;1024;1024;1669;1024;80,9;-21,5;94;3,611;3,569;3,565;0;0;0;0;;149,060495;39,1;6;P-GPS;
23200;25.08.2021 07:02;53,20754232;22,77305239;39,3;39,43;109,830495;149,260495;9,1;0;1,46417;15;5;10,745;149,260495;39,3;5,4;1,47673;0;0;-6,84;80,80;2,2;-2,8;0;1;1024;1024;1669;1024;80,9;-22,2;94;3,611;3,569;3,565;0;0;0;0;;149,260495;39,3;6;P-GPS;
23300;25.08.2021 07:02;53,20754229;22,77305239;39,5;39,63;109,830495;149,460495;9,1;0;1,46193;15;5;10,745;149,460495;39,5;5,4;1,47673;0;0;-6,84;80,80;2,6;-2,6;0;1;1024;1024;1670;1024;80,9;-23;94;3,611;3,569;3,565;0;0;0;0;;149,460495;39,5;6;P-GPS;
23400;25.08.2021 07:02;53,20754218;22,77305217;39,7;39,83;109,830495;149,660495;9,1;0;1,46608;15;5;10,745;149,660495;39,7;5,4;1,47673;0;0;-6,84;80,90;2,2;-3,3;0;1;1024;1024;1670;1024;80,9;-23,7;94;3,611;3,569;3,565;0;0;0;0;;149,660495;39,7;6;P-GPS;
23500;25.08.2021 07:02;53,20754212;22,77305215;39,9;40,03;109,830495;149,860495;9,1;0;1,46297;15;5;10,745;149,860495;39,9;5,4;1,47673;0;0;-6,84;80,90;2,3;-4;0;1;1024;1024;1669;1024;80,9;-24,5;94;3,611;3,569;3,565;0;0;0;0;;149,860495;39,9;6;P-GPS;
23600;25.08.2021 07:02;53,20754201;22,77305221;40,1;40,23;109,830495;150,060495;9,1;0;1,45243;15;5;10,745;150,060495;40,1;5,4;1,47673;0;0;-6,84;80,80;2,5;-3,7;0;1;1024;1024;1669;1024;80,9;-25,2;94;3,611;3,569;3,565;0;0;0;0;;150,060495;40,1;6;P-GPS;
23700;25.08.2021 07:02;53,20754194;22,7730522;40,3;40,43;109,830495;150,260495;9,1;0;1,44906;15;5;10,745;150,260495;40,3;5,4;1,47673;0;0;-6,84;80,70;2,5;-4,2;0;1;1024;1024;1667;1024;80,9;-25,6;94;3,611;3,569;3,565;0;0;0;0;;150,260495;40,3;6;P-GPS;
23800;25.08.2021 07:02;53,20754173;22,77305221;40,6;40,73;109,830495;150,560495;9,1;0;1,43457;15;5;10,745;150,560495;40,6;5,4;1,47673;0;0;-6,84;80,80;2,4;-4,6;0;1;1024;1024;1666;1024;80,9;-25,6;94;3,611;3,569;3,565;0;0;0;0;;150,560495;40,6;6;P-GPS;
23900;25.08.2021 07:02;53,20754168;22,77305217;40,8;40,93;109,830495;150,760495;9,1;0;1,43389;15;5;10,745;150,760495;40,8;5,4;1,47673;0;0;-6,84;80,80;1,9;-4,4;0;1;1024;1024;1666;1024;80,9;-25,6;94;3,611;3,569;3,565;0;0;0;0;;150,760495;40,8;6;P-GPS;
24000;25.08.2021 07:02;53,20754189;22,77305183;40,9;41,03;109,830495;150,860495;9,1;0;1,46583;15;5;10,697;150,860495;40,9;5,4;1,47673;0;0;-6,84;80,80;2;-3,5;0;1;1024;1024;1666;1024;80,9;-25,6;94;3,6;3,544;3,553;0;0;0;0;;150,860495;40,9;6;P-GPS;
